{
  "type": "FeatureCollection",
  "features": [
    {
      "type": "Feature",
      "properties": {
        "id": "A-TAG001",
        "propertyType": "Condo",
        "transactionType": "Sale",
        "accuracy": "precise",
        "location": "Bonifacio Global City, Taguig",
        "name": "The Proscenium Residences",
        "price": 25000000
      },
      "geometry": {
        "type": "Point",
        "coordinates": [121.0483, 14.5547]
      }
    },
    {
      "type": "Feature",
      "properties": {
        "id": "B-MUN002",
        "propertyType": "House",
        "transactionType": "Rent",
        "accuracy": "approximate",
        "location": "Ayala Alabang Village, Muntinlupa",
        "name": "Modern Zen Mansion",
        "price": 350000
      },
      "geometry": {
        "type": "Point",
        "coordinates": [121.0189, 14.4012]
      }
    },
    {
      "type": "Feature",
      "properties": {
        "id": "B-MAK003",
        "propertyType": "Condo",
        "transactionType": "Rent",
        "accuracy": "precise",
        "location": "Rockwell Center, Makati",
        "name": "Manansala Tower Unit",
        "price": 85000
      },
      "geometry": {
        "type": "Point",
        "coordinates": [121.0366, 14.5606]
      }
    },
    {
      "type": "Feature",
      "properties": {
        "id": "A-QUE004",
        "propertyType": "Apartment",
        "transactionType": "Sale",
        "accuracy": "approximate",
        "location": "Quezon City",
        "name": "Diliman Residential Complex",
        "price": 12000000
      },
      "geometry": {
        "type": "Point",
        "coordinates": [121.0583, 14.6500]
      }
    },
    {
      "type": "Feature",
      "properties": {
        "id": "A-PAS005",
        "propertyType": "Condo",
        "transactionType": "Sale",
        "accuracy": "precise",
        "location": "Ortigas Center, Pasig",
        "name": "The Galleon",
        "price": 18000000
      },
      "geometry": {
        "type": "Point",
        "coordinates": [121.0601, 14.5855]
      }
    },
    {
      "type": "Feature",
      "properties": {
        "id": "A-MAR006",
        "propertyType": "House",
        "transactionType": "Sale",
        "accuracy": "approximate",
        "location": "Loyola Grand Villas, Marikina",
        "name": "Hilltop Estate",
        "price": 45000000
      },
      "geometry": {
        "type": "Point",
        "coordinates": [121.0822, 14.6539]
      }
    },
    {
      "type": "Feature",
      "properties": {
        "id": "B-PSY007",
        "propertyType": "Condo",
        "transactionType": "Rent",
        "accuracy": "precise",
        "location": "Bay City, Pasay",
        "name": "Shore Residences",
        "price": 45000
      },
      "geometry": {
        "type": "Point",
        "coordinates": [120.9822, 14.5386]
      }
    },
    {
      "type": "Feature",
      "properties": {
        "id": "A-SJN008",
        "propertyType": "Townhouse",
        "transactionType": "Sale",
        "accuracy": "precise",
        "location": "San Juan City",
        "name": "Greenhills Modern Townhouse",
        "price": 32000000
      },
      "geometry": {
        "type": "Point",
        "coordinates": [121.0355, 14.6019]
      }
    },
    {
      "type": "Feature",
      "properties": {
        "id": "B-QUE009",
        "propertyType": "Condo",
        "transactionType": "Rent",
        "accuracy": "approximate",
        "location": "Araneta City, Cubao",
        "name": "Manhattan Garden City",
        "price": 30000
      },
      "geometry": {
        "type": "Point",
        "coordinates": [121.0547, 14.6212]
      }
    },
    {
      "type": "Feature",
      "properties": {
        "id": "B-MNL010",
        "propertyType": "Office",
        "transactionType": "Rent",
        "accuracy": "precise",
        "location": "Binondo, Manila",
        "name": "Old Manila Loft",
        "price": 120000
      },
      "geometry": {
        "type": "Point",
        "coordinates": [120.9750, 14.6000]
      }
    }
  ]
}